id,name,lat,lng
f_1,automativ,40.856521,29.431284
f_2,Alarko,40.855412,29.423145
f_3,opak,40.861245,29.415622
f_4,aromsa,40.85868,29.42156
f_5,akay,40.85042,29.41168
f_6,teklas,40.8577411,29.4220382
f_7,Erdemir,40.858145,29.426122
f_8,bilim,40.868212,29.410531
f_9,aygaz,40.854131,29.418247
f_10,flormar,40.852278,29.429815
